{
"type": "FeatureCollection",
"name": "es_3_2020052813",
"crs": { "type": "name", "properties": { "name": "urn:ogc:def:crs:OGC:1.3:CRS84" } },
"features": [
{ "type": "Feature", "properties": { "name": "Mpumalanga", "externalParentId": "5395bec7-b3dd-4051-9272-a66473167d01", "externalId": "1494eac7-8c62-41e5-9315-7cf81c412223", "geographicLevel": "3" }, "geometry": { "type": "Point", "coordinates": [ 31.452159, -26.117262 ] } },
{ "type": "Feature", "properties": { "name": "All Saints", "externalParentId": "583c6790-a879-41e6-9a8b-7a141de4b422", "externalId": "9d657898-a9be-47c2-8f6e-a1683d8046f8", "geographicLevel": "3" }, "geometry": { "type": "Point", "coordinates": [ 31.093943, -26.378803 ] } },
{ "type": "Feature", "properties": { "name": "Mashobeni North", "externalParentId": "eb9ff131-43f8-4e96-bda6-62490fb1abbd", "externalId": "94599ae1-776b-43c4-8a19-5860f5c69f17", "geographicLevel": "3" }, "geometry": { "type": "Point", "coordinates": [ 31.436784, -25.743577 ] } },
{ "type": "Feature", "properties": { "name": "Sos\/Herman Gmeiner", "externalParentId": "b915cfc1-2838-4224-a69b-b0ba9543be41", "externalId": "14656698-9858-49ee-bbbd-3bd2e0916457", "geographicLevel": "3" }, "geometry": { "type": "Point", "coordinates": [ 31.11244, -26.305846 ] } },
{ "type": "Feature", "properties": { "name": "Bhalekane Nazarene", "externalParentId": "65a777bc-6be0-4355-a092-d633f9d5e1d5", "externalId": "c2afaf88-a1cc-471e-a2c4-9dcd9a77eb9b", "geographicLevel": "3" }, "geometry": { "type": "Point", "coordinates": [ 31.550725, -26.083267 ] } },
{ "type": "Feature", "properties": { "name": "Lugongoglwane", "externalParentId": "9f7a3e30-7028-4ee4-ac5a-4a83fe32b63b", "externalId": "ca68676e-1098-4098-9f27-0239c72b9e15", "geographicLevel": "3" }, "geometry": { "type": "Point", "coordinates": [ 31.466, -25.8998 ] } },
{ "type": "Feature", "properties": { "name": "Zandondo", "externalParentId": "65a777bc-6be0-4355-a092-d633f9d5e1d5", "externalId": "4b32d48a-6f11-4419-87f3-7b778a08a438", "geographicLevel": "3" }, "geometry": { "type": "Point", "coordinates": [ 31.523748, -26.161154 ] } },
{ "type": "Feature", "properties": { "name": "Peak Central", "externalParentId": "9c6a7f2d-a696-49b3-94b6-74c0eeb5466f", "externalId": "2b2a65e3-6977-4998-bc97-34a50af2f72e", "geographicLevel": "3" }, "geometry": { "type": "Point", "coordinates": [ 31.259286, -25.951313 ] } },
{ "type": "Feature", "properties": { "name": "St Johns", "externalParentId": "ce78fa14-30f3-43bb-8720-6cece5f257fd", "externalId": "1dded120-83ca-4892-8a73-a19ea266fc5d", "geographicLevel": "3" }, "geometry": { "type": "Point", "coordinates": [ 32.0646, -26.6532 ] } },
{ "type": "Feature", "properties": { "name": "Mabondvweni", "externalParentId": "60f89f58-5f22-466d-afae-07c8e6b6a37d", "externalId": "4c4cdc32-ab72-41ca-8c36-a19891b84fac", "geographicLevel": "3" }, "geometry": { "type": "Point", "coordinates": [ 31.66824, -26.537636 ] } },
{ "type": "Feature", "properties": { "name": "St Boniface", "externalParentId": "0003bf7f-2fa7-439c-bb63-691db5562134", "externalId": "285cbeb6-1852-457f-a6be-1738074888b8", "geographicLevel": "3" }, "geometry": { "type": "Point", "coordinates": [ 31.9205, -26.4364 ] } },
{ "type": "Feature", "properties": { "name": "Mhlume", "externalParentId": "3ec62c9c-786e-4e1b-bd00-c7919e4fec70", "externalId": "e2c049dd-1ded-4bc0-9306-90cb67292cc6", "geographicLevel": "3" }, "geometry": { "type": "Point", "coordinates": [ 31.8119, -26.0394 ] } },
{ "type": "Feature", "properties": { "name": "Ngomane", "externalParentId": "779e5458-2923-47c4-8413-336c7fca635c", "externalId": "2333c34b-3345-4f47-bc37-efef3bb5776a", "geographicLevel": "3" }, "geometry": { "type": "Point", "coordinates": [ 31.816883, -26.193492 ] } },
{ "type": "Feature", "properties": { "name": "Emafusini Nazarene", "externalParentId": "f6a81103-bc29-40c4-876c-62532e54b664", "externalId": "355bc208-bd48-46c7-ad52-73dd75b88f36", "geographicLevel": "3" }, "geometry": { "type": "Point", "coordinates": [ 32.001922, -25.998192 ] } },
{ "type": "Feature", "properties": { "name": "Lubulini Catholic", "externalParentId": "d544c630-6c51-49cf-8080-52b8a4a95cf1", "externalId": "fb73381d-76f3-48bf-a963-d2bd7107cbc2", "geographicLevel": "3" }, "geometry": { "type": "Point", "coordinates": [ 31.905496, -27.01827 ] } },
{ "type": "Feature", "properties": { "name": "St Phillips", "externalParentId": "4bcb4957-389e-4ed5-ab8a-fd922cbcc240", "externalId": "4b8658d7-6916-4c94-8c63-da8bd6a59683", "geographicLevel": "3" }, "geometry": { "type": "Point", "coordinates": [ 31.770211, -26.853529 ] } },
{ "type": "Feature", "properties": { "name": "Manzini Nazarene", "externalParentId": "7b0cffcf-2218-4eca-af86-debe8d809274", "externalId": "97569bd0-cd30-4a8f-9e9e-bd8deb020513", "geographicLevel": "3" }, "geometry": { "type": "Point", "coordinates": [ 31.361051, -26.498186 ] } },
{ "type": "Feature", "properties": { "name": "Dwalile", "externalParentId": "74accedf-acd5-44f6-9685-fb2c25d509ce", "externalId": "0315d73f-9825-4b38-b559-25814ff16644", "geographicLevel": "3" }, "geometry": { "type": "Point", "coordinates": [ 30.7954, -26.6618 ] } },
{ "type": "Feature", "properties": { "name": "Antioch", "externalParentId": "5d22573b-0ad3-4cd2-a678-ef0b32c66a14", "externalId": "a00a4808-e61c-41a9-82ec-ac1ed71d8c0b", "geographicLevel": "3" }, "geometry": { "type": "Point", "coordinates": [ 31.516165, -26.268804 ] } },
{ "type": "Feature", "properties": { "name": "Sigcineni Catholic", "externalParentId": "02ea88e3-9d99-4017-b082-484e60521b20", "externalId": "b1df3fb5-2b2d-4793-8321-a9c9b619c059", "geographicLevel": "3" }, "geometry": { "type": "Point", "coordinates": [ 31.307476, -26.719308 ] } },
{ "type": "Feature", "properties": { "name": "Khalangilile", "externalParentId": "08594640-55c0-42c0-b26e-e52bacd29af5", "externalId": "602b4282-f3b4-4bfd-a248-7c3fd7ebbe09", "geographicLevel": "3" }, "geometry": { "type": "Point", "coordinates": [ 31.18463, -26.599973 ] } },
{ "type": "Feature", "properties": { "name": "Ngwane Park", "externalParentId": "7b0cffcf-2218-4eca-af86-debe8d809274", "externalId": "6bb1d878-065d-4401-9ebf-64015d359cb0", "geographicLevel": "3" }, "geometry": { "type": "Point", "coordinates": [ 31.370893, -26.525866 ] } },
{ "type": "Feature", "properties": { "name": "Siphumelele", "externalParentId": "445285d8-72f3-44f1-9b78-fe4935930e66", "externalId": "c1ea63ee-b6b8-41a6-bd47-0ac8e8a47379", "geographicLevel": "3" }, "geometry": { "type": "Point", "coordinates": [ 31.333995, -26.486355 ] } },
{ "type": "Feature", "properties": { "name": "Siphumelele", "externalParentId": "445285d8-72f3-44f1-9b78-fe4935930e66", "externalId": "f987f12c-fee6-4131-97ed-997e4efa35eb", "geographicLevel": "3" }, "geometry": { "type": "Point", "coordinates": [ 31.333995, -26.486355 ] } },
{ "type": "Feature", "properties": { "name": "Nhlanagano Central", "externalParentId": "fd5daf75-f1a1-412f-b1b2-d8d69927ad33", "externalId": "c549275a-fa05-43f5-bee6-5359061532a1", "geographicLevel": "3" }, "geometry": { "type": "Point", "coordinates": [ 31.195385, -27.100521 ] } },
{ "type": "Feature", "properties": { "name": "Mahhoshe", "externalParentId": "bb98153f-a92b-45bc-9ff1-e60bf6d87007", "externalId": "6bb644ed-d41d-4fea-a412-d648a7135737", "geographicLevel": "3" }, "geometry": { "type": "Point", "coordinates": [ 31.571362, -26.976336 ] } },
{ "type": "Feature", "properties": { "name": "Matsanjeni", "externalParentId": "ba2754e7-f4ac-4d7a-bb05-5dddcfd71b87", "externalId": "647d4649-daad-491e-8abc-3c05ef7f6dc9", "geographicLevel": "3" }, "geometry": { "type": "Point", "coordinates": [ 31.74877, -27.253458 ] } },
{ "type": "Feature", "properties": { "name": "Enhletjeni", "externalParentId": "46c3adae-1046-4437-9a83-19272b156d54", "externalId": "c116404c-09cd-4f35-9432-ada0fbbf8253", "geographicLevel": "3" }, "geometry": { "type": "Point", "coordinates": [ 31.378332, -27.048847 ] } },
{ "type": "Feature", "properties": { "name": "Ngwane Practising", "externalParentId": "fd5daf75-f1a1-412f-b1b2-d8d69927ad33", "externalId": "fa86faca-25df-44a3-8b8c-894649cac565", "geographicLevel": "3" }, "geometry": { "type": "Point", "coordinates": [ 31.1995, -27.1353 ] } },
{ "type": "Feature", "properties": { "name": "Salem", "externalParentId": "58e8e905-0392-42ef-8f94-89c8eb87b64a", "externalId": "99642369-fec4-4cb2-99c6-c901228b3adf", "geographicLevel": "3" }, "geometry": { "type": "Point", "coordinates": [ 31.338192, -26.936579 ] } },
{ "type": "Feature", "properties": { "name": "Nyanyali", "externalParentId": "1dbcdce5-18a1-4a42-9b0b-5978b2b1fc81", "externalId": "2670edc8-dcb9-43a3-9fc0-045694a9fb57", "geographicLevel": "3" }, "geometry": { "type": "Point", "coordinates": [ 31.358325, -26.797137 ] } },
{ "type": "Feature", "properties": { "name": "Our Lady Of Sorrows", "externalParentId": "0990ee63-c5a6-43ab-be08-f5dbcd9a1556", "externalId": "58287a8d-280f-413a-b120-919072bf3286", "geographicLevel": "3" }, "geometry": { "type": "Point", "coordinates": [ 31.5232, -27.2606 ] } }
]
}
